{
  "1191526965182730607": {
    "store_id": "1191526965182730607",
    "name": "江南石溪加油站",
    "logo": "",
    "logo_x": "",
    "logo_xx": "",
    "lat": 23.06644,
    "lng": 113.28835,
    "rawid": "",
    "distance": "7.4km",
    "price": "6.48"
  },
  "1191526979208483218": {
    "store_id": "1191526979208483218",
    "name": "中石油BP广州中穗加油站",
    "logo": "//static.bs.didistatic.com/static/gsbs/anything/f57e077db92c116dbc6475e2dabcc0c1_1528180236.png",
    "logo_x": "//static.bs.didistatic.com/static/gsbs/anything/3fb6e3b58ddba349dfa116266336f225_1528180239.png",
    "logo_xx": "//static.bs.didistatic.com/static/gsbs/anything/3da5ddcf54111518dcba53a7ce3a278a_1528180241.png",
    "lat": 23.18625,
    "lng": 113.25931,
    "rawid": "",
    "distance": "6.4km",
    "price": "7.13"
  },
  "1191527062423474783": {
    "store_id": "1191527062423474783",
    "name": "中石油BP广州庆丰加油站",
    "logo": "//static.bs.didistatic.com/static/gsbs/anything/f57e077db92c116dbc6475e2dabcc0c1_1528180236.png",
    "logo_x": "//static.bs.didistatic.com/static/gsbs/anything/3fb6e3b58ddba349dfa116266336f225_1528180239.png",
    "logo_xx": "//static.bs.didistatic.com/static/gsbs/anything/3da5ddcf54111518dcba53a7ce3a278a_1528180241.png",
    "lat": 23.21079,
    "lng": 113.23028,
    "rawid": "",
    "distance": "9.7km",
    "price": "7.13"
  },
  "1191527105641583302": {
    "store_id": "1191527105641583302",
    "name": "中石油BP广州骏马加油站",
    "logo": "//static.bs.didistatic.com/static/gsbs/anything/f57e077db92c116dbc6475e2dabcc0c1_1528180236.png",
    "logo_x": "//static.bs.didistatic.com/static/gsbs/anything/3fb6e3b58ddba349dfa116266336f225_1528180239.png",
    "logo_xx": "//static.bs.didistatic.com/static/gsbs/anything/3da5ddcf54111518dcba53a7ce3a278a_1528180241.png",
    "lat": 23.25054,
    "lng": 113.25339,
    "rawid": "",
    "distance": "13.6km",
    "price": "7.13"
  },
  "1191527128458597116": {
    "store_id": "1191527128458597116",
    "name": "MHPC龙津加油站",
    "logo": "",
    "logo_x": "",
    "logo_xx": "",
    "lat": 23.19077,
    "lng": 113.37596,
    "rawid": "",
    "distance": "13.3km",
    "price": "6.58"
  },
  "1191527135639245582": {
    "store_id": "1191527135639245582",
    "name": "中石油BP广州龙湾加油站",
    "logo": "//static.bs.didistatic.com/static/gsbs/anything/f57e077db92c116dbc6475e2dabcc0c1_1528180236.png",
    "logo_x": "//static.bs.didistatic.com/static/gsbs/anything/3fb6e3b58ddba349dfa116266336f225_1528180239.png",
    "logo_xx": "//static.bs.didistatic.com/static/gsbs/anything/3da5ddcf54111518dcba53a7ce3a278a_1528180241.png",
    "lat": 23.0653,
    "lng": 113.1914,
    "rawid": "",
    "distance": "10.3km",
    "price": "7.13"
  },
  "1191527162013029199": {
    "store_id": "1191527162013029199",
    "name": "中石油BP广州穗城加油站",
    "logo": "//static.bs.didistatic.com/static/gsbs/anything/f57e077db92c116dbc6475e2dabcc0c1_1528180236.png",
    "logo_x": "//static.bs.didistatic.com/static/gsbs/anything/3fb6e3b58ddba349dfa116266336f225_1528180239.png",
    "logo_xx": "//static.bs.didistatic.com/static/gsbs/anything/3da5ddcf54111518dcba53a7ce3a278a_1528180241.png",
    "lat": 23.22143,
    "lng": 113.26326,
    "rawid": "",
    "distance": "10.3km",
    "price": "7.13"
  },
  "1191527176575652719": {
    "store_id": "1191527176575652719",
    "name": "MHPC江夏加油站",
    "logo": "",
    "logo_x": "",
    "logo_xx": "",
    "lat": 23.20311,
    "lng": 113.28367,
    "rawid": "",
    "distance": "8.5km",
    "price": "6.62"
  },
  "1191527182145688442": {
    "store_id": "1191527182145688442",
    "name": "中石油BP广州云港加油站",
    "logo": "//static.bs.didistatic.com/static/gsbs/anything/f57e077db92c116dbc6475e2dabcc0c1_1528180236.png",
    "logo_x": "//static.bs.didistatic.com/static/gsbs/anything/3fb6e3b58ddba349dfa116266336f225_1528180239.png",
    "logo_xx": "//static.bs.didistatic.com/static/gsbs/anything/3da5ddcf54111518dcba53a7ce3a278a_1528180241.png",
    "lat": 23.18347,
    "lng": 113.26494,
    "rawid": "",
    "distance": "6.0km",
    "price": "7.13"
  },
  "1191527187313070983": {
    "store_id": "1191527187313070983",
    "name": "中石油BP广州永泰加油站",
    "logo": "//static.bs.didistatic.com/static/gsbs/anything/f57e077db92c116dbc6475e2dabcc0c1_1528180236.png",
    "logo_x": "//static.bs.didistatic.com/static/gsbs/anything/3fb6e3b58ddba349dfa116266336f225_1528180239.png",
    "logo_xx": "//static.bs.didistatic.com/static/gsbs/anything/3da5ddcf54111518dcba53a7ce3a278a_1528180241.png",
    "lat": 23.22013,
    "lng": 113.30444,
    "rawid": "",
    "distance": "10.9km",
    "price": "6.99"
  },
  "1192758868976079390": {
    "store_id": "1192758868976079390",
    "name": "中石油BP广州泛诚加油站",
    "logo": "//static.bs.didistatic.com/static/gsbs/anything/f57e077db92c116dbc6475e2dabcc0c1_1528180236.png",
    "logo_x": "//static.bs.didistatic.com/static/gsbs/anything/3fb6e3b58ddba349dfa116266336f225_1528180239.png",
    "logo_xx": "//static.bs.didistatic.com/static/gsbs/anything/3da5ddcf54111518dcba53a7ce3a278a_1528180241.png",
    "lat": 23.1453,
    "lng": 113.3201,
    "rawid": "",
    "distance": "6.0km",
    "price": "7.24"
  },
  "1475425480135184851": {
    "store_id": "1475425480135184851",
    "name": "中石油BP南海大沥表加油站",
    "logo": "//static.bs.didistatic.com/static/gsbs/anything/f57e077db92c116dbc6475e2dabcc0c1_1528180236.png",
    "logo_x": "//static.bs.didistatic.com/static/gsbs/anything/3fb6e3b58ddba349dfa116266336f225_1528180239.png",
    "logo_xx": "//static.bs.didistatic.com/static/gsbs/anything/3da5ddcf54111518dcba53a7ce3a278a_1528180241.png",
    "lat": 23.1313,
    "lng": 113.1231,
    "rawid": "",
    "distance": "14.5km",
    "price": "7.04"
  },
  "1475425484228825580": {
    "store_id": "1475425484228825580",
    "name": "MHPC南海闽海加油站",
    "logo": "",
    "logo_x": "",
    "logo_xx": "",
    "lat": 23.11172,
    "lng": 113.19209,
    "rawid": "",
    "distance": "7.7km",
    "price": "6.57"
  },
  "1475425486846071292": {
    "store_id": "1475425486846071292",
    "name": "中石油BP南海里水加油站",
    "logo": "//static.bs.didistatic.com/static/gsbs/anything/f57e077db92c116dbc6475e2dabcc0c1_1528180236.png",
    "logo_x": "//static.bs.didistatic.com/static/gsbs/anything/3fb6e3b58ddba349dfa116266336f225_1528180239.png",
    "logo_xx": "//static.bs.didistatic.com/static/gsbs/anything/3da5ddcf54111518dcba53a7ce3a278a_1528180241.png",
    "lat": 23.18601,
    "lng": 113.1563,
    "rawid": "",
    "distance": "12.7km",
    "price": "6.89"
  },
  "1475425487517159936": {
    "store_id": "1475425487517159936",
    "name": "中石油BP南海盐步加油站",
    "logo": "//static.bs.didistatic.com/static/gsbs/anything/f57e077db92c116dbc6475e2dabcc0c1_1528180236.png",
    "logo_x": "//static.bs.didistatic.com/static/gsbs/anything/3fb6e3b58ddba349dfa116266336f225_1528180239.png",
    "logo_xx": "//static.bs.didistatic.com/static/gsbs/anything/3da5ddcf54111518dcba53a7ce3a278a_1528180241.png",
    "lat": 23.0891,
    "lng": 113.1796,
    "rawid": "",
    "distance": "9.8km",
    "price": "6.84"
  },
  "1475425525970539245": {
    "store_id": "1475425525970539245",
    "name": "中石油BP南海佳宜加油站",
    "logo": "//static.bs.didistatic.com/static/gsbs/anything/f57e077db92c116dbc6475e2dabcc0c1_1528180236.png",
    "logo_x": "//static.bs.didistatic.com/static/gsbs/anything/3fb6e3b58ddba349dfa116266336f225_1528180239.png",
    "logo_xx": "//static.bs.didistatic.com/static/gsbs/anything/3da5ddcf54111518dcba53a7ce3a278a_1528180241.png",
    "lat": 23.16516,
    "lng": 113.13912,
    "rawid": "",
    "distance": "13.4km",
    "price": "6.93"
  },
  "1475425531540574991": {
    "store_id": "1475425531540574991",
    "name": "中石油BP佛山南奇加油站",
    "logo": "//static.bs.didistatic.com/static/gsbs/anything/f57e077db92c116dbc6475e2dabcc0c1_1528180236.png",
    "logo_x": "//static.bs.didistatic.com/static/gsbs/anything/3fb6e3b58ddba349dfa116266336f225_1528180239.png",
    "logo_xx": "//static.bs.didistatic.com/static/gsbs/anything/3da5ddcf54111518dcba53a7ce3a278a_1528180241.png",
    "lat": 23.0826,
    "lng": 113.1414,
    "rawid": "",
    "distance": "13.6km",
    "price": "6.99"
  },
  "1945690267143377611": {
    "store_id": "1945690267143377611",
    "name": "中国石油(新力)加油站",
    "logo": "",
    "logo_x": "",
    "logo_xx": "",
    "lat": 23.12739,
    "lng": 113.362367,
    "rawid": "",
    "distance": "10.0km",
    "price": "6.73"
  },
  "1963617578345829250": {
    "store_id": "1963617578345829250",
    "name": "MHPC广州闽海加油站",
    "logo": "",
    "logo_x": "",
    "logo_xx": "",
    "lat": 23.15376,
    "lng": 113.40386,
    "rawid": "",
    "distance": "14.5km",
    "price": "6.57"
  },
  "3030349775066370895": {
    "store_id": "3030349775066370895",
    "name": "中油BP广州清溪加油站",
    "logo": "//static.bs.didistatic.com/static/gsbs/anything/f57e077db92c116dbc6475e2dabcc0c1_1528180236.png",
    "logo_x": "//static.bs.didistatic.com/static/gsbs/anything/3fb6e3b58ddba349dfa116266336f225_1528180239.png",
    "logo_xx": "//static.bs.didistatic.com/static/gsbs/anything/3da5ddcf54111518dcba53a7ce3a278a_1528180241.png",
    "lat": 23.17188,
    "lng": 113.33013,
    "rawid": "",
    "distance": "8.2km",
    "price": "7.04"
  },
  "3186745852840644816": {
    "store_id": "3186745852840644816",
    "name": "中油BP番禺河村西加油站",
    "logo": "//static.bs.didistatic.com/static/gsbs/anything/f57e077db92c116dbc6475e2dabcc0c1_1528180236.png",
    "logo_x": "//static.bs.didistatic.com/static/gsbs/anything/3fb6e3b58ddba349dfa116266336f225_1528180239.png",
    "logo_xx": "//static.bs.didistatic.com/static/gsbs/anything/3da5ddcf54111518dcba53a7ce3a278a_1528180241.png",
    "lat": 23.01872,
    "lng": 113.33348,
    "rawid": "",
    "distance": "14.2km",
    "price": "7.04"
  },
  "3186747404867342547": {
    "store_id": "3186747404867342547",
    "name": "中油BP广州敦本加油站",
    "logo": "//static.bs.didistatic.com/static/gsbs/anything/f57e077db92c116dbc6475e2dabcc0c1_1528180236.png",
    "logo_x": "//static.bs.didistatic.com/static/gsbs/anything/3fb6e3b58ddba349dfa116266336f225_1528180239.png",
    "logo_xx": "//static.bs.didistatic.com/static/gsbs/anything/3da5ddcf54111518dcba53a7ce3a278a_1528180241.png",
    "lat": 23.16992,
    "lng": 113.34657,
    "rawid": "",
    "distance": "9.6km",
    "price": "6.84"
  },
  "3186752346294325470": {
    "store_id": "3186752346294325470",
    "name": "中油BP广州永八加油站",
    "logo": "//static.bs.didistatic.com/static/gsbs/anything/f57e077db92c116dbc6475e2dabcc0c1_1528180236.png",
    "logo_x": "//static.bs.didistatic.com/static/gsbs/anything/3fb6e3b58ddba349dfa116266336f225_1528180239.png",
    "logo_xx": "//static.bs.didistatic.com/static/gsbs/anything/3da5ddcf54111518dcba53a7ce3a278a_1528180241.png",
    "lat": 23.21375,
    "lng": 113.29212,
    "rawid": "",
    "distance": "9.8km",
    "price": "6.99"
  },
  "4846005995178038188": {
    "store_id": "4846005995178038188",
    "name": "中油BP元岗加油站",
    "logo": "//static.bs.didistatic.com/static/gsbs/anything/f57e077db92c116dbc6475e2dabcc0c1_1528180236.png",
    "logo_x": "//static.bs.didistatic.com/static/gsbs/anything/3fb6e3b58ddba349dfa116266336f225_1528180239.png",
    "logo_xx": "//static.bs.didistatic.com/static/gsbs/anything/3da5ddcf54111518dcba53a7ce3a278a_1528180241.png",
    "lat": 23.16952,
    "lng": 113.34195,
    "rawid": "",
    "distance": "9.1km",
    "price": "7.13"
  },
  "4846008053541114243": {
    "store_id": "4846008053541114243",
    "name": "中油BP广州南岸加油站",
    "logo": "//static.bs.didistatic.com/static/gsbs/anything/f57e077db92c116dbc6475e2dabcc0c1_1528180236.png",
    "logo_x": "//static.bs.didistatic.com/static/gsbs/anything/3fb6e3b58ddba349dfa116266336f225_1528180239.png",
    "logo_xx": "//static.bs.didistatic.com/static/gsbs/anything/3da5ddcf54111518dcba53a7ce3a278a_1528180241.png",
    "lat": 23.13537,
    "lng": 113.23243,
    "rawid": "",
    "distance": "3.3km",
    "price": "6.93"
  },
  "4858700987537298400": {
    "store_id": "4858700987537298400",
    "name": "中石油BP广州敦和加油站",
    "logo": "//static.bs.didistatic.com/static/gsbs/anything/f57e077db92c116dbc6475e2dabcc0c1_1528180236.png",
    "logo_x": "//static.bs.didistatic.com/static/gsbs/anything/3fb6e3b58ddba349dfa116266336f225_1528180239.png",
    "logo_xx": "//static.bs.didistatic.com/static/gsbs/anything/3da5ddcf54111518dcba53a7ce3a278a_1528180241.png",
    "lat": 23.0903,
    "lng": 113.3163,
    "rawid": "",
    "distance": "6.8km",
    "price": "6.73"
  },
  "4872098983859720650": {
    "store_id": "4872098983859720650",
    "name": "中石油BP广州中油广通加油站",
    "logo": "",
    "logo_x": "",
    "logo_xx": "",
    "lat": 23.08018,
    "lng": 113.31443,
    "rawid": "",
    "distance": "7.5km",
    "price": "7.13"
  },
  "4877848901341680127": {
    "store_id": "4877848901341680127",
    "name": "MHPC润康加油站",
    "logo": "",
    "logo_x": "",
    "logo_xx": "",
    "lat": 23.1901,
    "lng": 113.3281,
    "rawid": "",
    "distance": "9.4km",
    "price": "6.48"
  },
  "4913090923272343932": {
    "store_id": "4913090923272343932",
    "name": "中油BP广州隆湖(龙湖)加油站",
    "logo": "",
    "logo_x": "",
    "logo_xx": "",
    "lat": 23.2357,
    "lng": 113.255,
    "rawid": "",
    "distance": "11.9km",
    "price": "7.04"
  },
  "4917489493207421830": {
    "store_id": "4917489493207421830",
    "name": "同声加油站",
    "logo": "",
    "logo_x": "",
    "logo_xx": "",
    "lat": 23.2232,
    "lng": 113.3385,
    "rawid": "",
    "distance": "12.9km",
    "price": "6.49"
  },
  "4922860732470006607": {
    "store_id": "4922860732470006607",
    "name": "中油BP三元里加油站",
    "logo": "",
    "logo_x": "",
    "logo_xx": "",
    "lat": 23.1543,
    "lng": 113.2574,
    "rawid": "",
    "distance": "2.9km",
    "price": "6.73"
  },
  "4930390675554832851": {
    "store_id": "4930390675554832851",
    "name": "鹤洞加油站",
    "logo": "",
    "logo_x": "",
    "logo_xx": "",
    "lat": 23.0759,
    "lng": 113.2451,
    "rawid": "",
    "distance": "6.3km",
    "price": "6.94"
  },
  "4955831756983374195": {
    "store_id": "4955831756983374195",
    "name": "广交能源元岗加油站",
    "logo": "",
    "logo_x": "",
    "logo_xx": "",
    "lat": 23.1846,
    "lng": 113.3602,
    "rawid": "",
    "distance": "11.6km",
    "price": "6.60"
  },
  "4983303887589478409": {
    "store_id": "4983303887589478409",
    "name": "广源加油站",
    "logo": "",
    "logo_x": "",
    "logo_xx": "",
    "lat": 23.1676,
    "lng": 113.2602,
    "rawid": "",
    "distance": "4.3km",
    "price": "6.33"
  },
  "4997166138821972222": {
    "store_id": "4997166138821972222",
    "name": "高胜集团广州京溪加油站",
    "logo": "",
    "logo_x": "",
    "logo_xx": "",
    "lat": 23.1813,
    "lng": 113.3339,
    "rawid": "",
    "distance": "9.2km",
    "price": "6.68"
  }
}